[
  {
    "name": "Concert in the Park",
    "description": "Join us for a live music concert in the park",
    "image_url": "https://picsum.photos/seed/concert/1920/1080",
    "society": "Music Society",
    "location": "Central Park",
    "date_time": "2023-06-15 19:30:00",
    "ticket_price": 25.99,
    "latitude": 40.7829,
    "longitude": -73.9654,
    "id": 1,
    "tags": [
      "Open to all",
      "Free Cake",
      "Alcohol free"
    ],
    "timestamp": 1686853800000,
    "_geoloc": {
      "lat": 40.7829,
      "lng": -73.9654
    },
    "objectID": "ffffffff-ffff-ffff-ffff-fffffffffff1"
  },
  {
    "name": "Football Tournament",
    "description": "Participate in the annual football tournament",
    "image_url": "https://picsum.photos/seed/football/1920/1080",
    "society": "Sports Club",
    "location": "City Stadium",
    "date_time": "2023-07-10 10:00:00",
    "ticket_price": 10,
    "latitude": 40.7128,
    "longitude": -74.006,
    "id": 2,
    "tags": [
      "Free Cake",
      "Alcohol free"
    ],
    "timestamp": 1688979600000,
    "_geoloc": {
      "lat": 40.7829,
      "lng": -73.9653
    },
    "objectID": "ffffffff-ffff-ffff-ffff-fffffffffff2"
  },
  {
    "name": "Art Exhibition",
    "description": "Explore a collection of contemporary art",
    "image_url": "https://picsum.photos/seed/art/1920/1080",
    "society": "Art Association",
    "location": "Gallery XYZ",
    "date_time": "2023-06-30 14:00:00",
    "ticket_price": 5.99,
    "latitude": 40.7406,
    "longitude": -73.9903,
    "id": 3,
    "tags": [
      "Open to all",
      "Alcohol free"
    ],
    "timestamp": 1688130000000,
    "_geoloc": {
      "lat": 40.7829,
      "lng": -73.9651
    },
    "objectID": "ffffffff-ffff-ffff-ffff-fffffffffff3"
  },
  {
    "name": "Food Festival",
    "description": "Experience a variety of culinary delights",
    "image_url": "https://picsum.photos/seed/food/1920/1080",
    "society": "Food Lovers Society",
    "location": "Town Square",
    "date_time": "2023-07-22 12:00:00",
    "ticket_price": 0,
    "latitude": 40.7589,
    "longitude": -73.9851,
    "id": 4,
    "tags": [
      "Open to all",
      "Free Cake",
      "Alcohol free"
    ],
    "timestamp": 1690023600000,
    "_geoloc": {
      "lat": 40.782,
      "lng": -73.9654
    },
    "objectID": "ffffffff-ffff-ffff-ffff-fffffffffff4"
  },
  {
    "name": "Tech Conference",
    "description": "We are excited to invite you to our upcoming event on modern Javascript! As technology continues to advance at an unprecedented rate, it's essential to stay up-to-date with the latest trends and developments in the field. Our event is the perfect opportunity to do just that.\n\nAt our event, you'll have the chance to learn about modern Javascript, one of the most widely used programming languages in the world. Our expert speakers will provide valuable insights into the latest techniques and best practices for using Javascript to create innovative and cutting-edge applications.\n\nNot only will you learn from some of the top minds in the industry, but you'll also have the opportunity to network with other professionals and enthusiasts who share your passion for technology. Whether you're a seasoned developer or just starting out, our event is the perfect place to connect with like-minded individuals and expand your knowledge and skills.\n\nSo don't miss out on this incredible opportunity to learn about modern Javascript and connect with other technology enthusiasts. Register today to secure your spot at our event!",
    "image_url": "https://picsum.photos/seed/tech/1920/1080",
    "society": "Tech Association",
    "location": "Conference Center",
    "date_time": "2023-08-05 09:00:00",
    "ticket_price": 50,
    "latitude": 40.7282,
    "longitude": -74.0776,
    "id": 5,
    "tags": [
      "Open to all"
    ],
    "timestamp": 1691222400000,
    "_geoloc": {
      "lat": 40.7823,
      "lng": -73.9654
    },
    "objectID": "ffffffff-ffff-ffff-ffff-fffffffffff5"
  }
]
